[{"id": "wuba10gZw-FUp7iWFQzdqA", "alias": "alma-cocina-downtown-atlanta", "name": "Alma Cocina - Downtown", "image_url": "https://s3-media1.fl.yelpcdn.com/bphoto/mmPM-Rq1V-0A9O5JdUKAAQ/o.jpg", "is_closed": false, "url": "https://www.yelp.com/biz/alma-cocina-downtown-atlanta?adjust_creative=EF8a8oVxO_eqnKdmEVpLxQ&utm_campaign=yelp_api_v3&utm_medium=api_v3_business_search&utm_source=EF8a8oVxO_eqnKdmEVpLxQ", "review_count": 1181, "categories": [{"alias": "latin", "title": "Latin American"}, {"alias": "mexican", "title": "Mexican"}, {"alias": "bars", "title": "Bars"}], "rating": 4.0, "coordinates": {"latitude": 33.759156314923, "longitude": -84.3874444429916}, "transactions": ["delivery"], "price": "$$", "location": {"address1": "191 Peachtree St NE", "address2": "", "address3": "", "city": "Atlanta", "zip_code": "30303", "country": "US", "state": "GA", "display_address": ["191 Peachtree St NE", "Atlanta, GA 30303"]}, "phone": "+14049689662", "display_phone": "(404) 968-9662", "distance": 254.05632399495363}, {"id": "apoBV5XVq8_WytnqNgKlug", "alias": "willys-mexicana-grill-atlanta-2", "name": "Willy's Mexicana Grill", "image_url": "https://s3-media1.fl.yelpcdn.com/bphoto/k4oOzZZSlg9hdqha6ubzBw/o.jpg", "is_closed": false, "url": "https://www.yelp.com/biz/willys-mexicana-grill-atlanta-2?adjust_creative=EF8a8oVxO_eqnKdmEVpLxQ&utm_campaign=yelp_api_v3&utm_medium=api_v3_business_search&utm_source=EF8a8oVxO_eqnKdmEVpLxQ", "review_count": 43, "categories": [{"alias": "tex-mex", "title": "Tex-Mex"}], "rating": 3.5, "coordinates": {"latitude": 33.760637, "longitude": -84.387351}, "transactions": ["pickup", "delivery"], "price": "$", "location": {"address1": "235 Peachtree St NE", "address2": "", "address3": "", "city": "Atlanta", "zip_code": "30303", "country": "US", "state": "GA", "display_address": ["235 Peachtree St NE", "Atlanta, GA 30303"]}, "phone": "+14045240821", "display_phone": "(404) 524-0821", "distance": 254.85804175666522}, {"id": "_ecM0OUXnNOjB6CMnldDtg", "alias": "the-sun-dial-restaurant-bar-and-view-atlanta", "name": "The Sun Dial Restaurant, Bar & View", "image_url": "https://s3-media3.fl.yelpcdn.com/bphoto/5aSc41GJTmpM2I5npwzZWw/o.jpg", "is_closed": false, "url": "https://www.yelp.com/biz/the-sun-dial-restaurant-bar-and-view-atlanta?adjust_creative=EF8a8oVxO_eqnKdmEVpLxQ&utm_campaign=yelp_api_v3&utm_medium=api_v3_business_search&utm_source=EF8a8oVxO_eqnKdmEVpLxQ", "review_count": 1196, "categories": [{"alias": "newamerican", "title": "American (New)"}, {"alias": "cocktailbars", "title": "Cocktail Bars"}], "rating": 3.5, "coordinates": {"latitude": 33.759349, "longitude": -84.388573}, "transactions": ["delivery"], "price": "$$$$", "location": {"address1": "210 Peachtree St NW", "address2": "", "address3": "", "city": "Atlanta", "zip_code": "30303", "country": "US", "state": "GA", "display_address": ["210 Peachtree St NW", "Atlanta, GA 30303"]}, "phone": "+14045897506", "display_phone": "(404) 589-7506", "distance": 150.32989738070475}, {"id": "pl0rP0cZNaTZU0qPLqGOnw", "alias": "jerk-brothers-atlanta", "name": "Jerk Brothers", "image_url": "https://s3-media3.fl.yelpcdn.com/bphoto/PqOragmISnrk1FTOHIPHRw/o.jpg", "is_closed": false, "url": "https://www.yelp.com/biz/jerk-brothers-atlanta?adjust_creative=EF8a8oVxO_eqnKdmEVpLxQ&utm_campaign=yelp_api_v3&utm_medium=api_v3_business_search&utm_source=EF8a8oVxO_eqnKdmEVpLxQ", "review_count": 25, "categories": [{"alias": "foodtrucks", "title": "Food Trucks"}, {"alias": "caribbean", "title": "Caribbean"}], "rating": 2.0, "coordinates": {"latitude": 33.75531, "longitude": -84.39085}, "transactions": [], "location": {"address1": "", "address2": "", "address3": null, "city": "Atlanta", "zip_code": "30301", "country": "US", "state": "GA", "display_address": ["Atlanta, GA 30301"]}, "phone": "+14044476804", "display_phone": "(404) 447-6804", "distance": 0.31737077494853155}, {"id": "X7vgSJUfaGyoa_H38ZG-yw", "alias": "meehans-public-house-downtown-atlanta-2", "name": "Meehan's Public House - Downtown", "image_url": "https://s3-media1.fl.yelpcdn.com/bphoto/TWiGGTiJXY3ka602EFjzEA/o.jpg", "is_closed": false, "url": "https://www.yelp.com/biz/meehans-public-house-downtown-atlanta-2?adjust_creative=EF8a8oVxO_eqnKdmEVpLxQ&utm_campaign=yelp_api_v3&utm_medium=api_v3_business_search&utm_source=EF8a8oVxO_eqnKdmEVpLxQ", "review_count": 484, "categories": [{"alias": "bars", "title": "Bars"}, {"alias": "breakfast_brunch", "title": "Breakfast & Brunch"}, {"alias": "burgers", "title": "Burgers"}], "rating": 3.5, "coordinates": {"latitude": 33.759147, "longitude": -84.387734}, "transactions": ["pickup", "delivery"], "price": "$$", "location": {"address1": "200 Peachtree St", "address2": "", "address3": "", "city": "Atlanta", "zip_code": "30303", "country": "US", "state": "GA", "display_address": ["200 Peachtree St", "Atlanta, GA 30303"]}, "phone": "+14042149821", "display_phone": "(404) 214-9821", "distance": 229.81278461832918}, {"id": "ztQuwIzoslpF1oQv--03Hg", "alias": "terrace-atlanta", "name": "Terrace", "image_url": "https://s3-media2.fl.yelpcdn.com/bphoto/91a-ffTqr0u3IqTSoxlULQ/o.jpg", "is_closed": false, "url": "https://www.yelp.com/biz/terrace-atlanta?adjust_creative=EF8a8oVxO_eqnKdmEVpLxQ&utm_campaign=yelp_api_v3&utm_medium=api_v3_business_search&utm_source=EF8a8oVxO_eqnKdmEVpLxQ", "review_count": 40, "categories": [{"alias": "newamerican", "title": "American (New)"}], "rating": 3.0, "coordinates": {"latitude": 33.75826, "longitude": -84.38783}, "transactions": ["delivery"], "price": "$$$", "location": {"address1": "176 Peachtree St NW", "address2": "", "address3": "The Ellis Hotel", "city": "Atlanta", "zip_code": "30303", "country": "US", "state": "GA", "display_address": ["176 Peachtree St NW", "The Ellis Hotel", "Atlanta, GA 30303"]}, "phone": "+16786512770", "display_phone": "(678) 651-2770", "distance": 272.61873936168263}, {"id": "3R0TFde14zZt4LgXVYmhiQ", "alias": "hooters-atlanta-2", "name": "Hooters", "image_url": "https://s3-media1.fl.yelpcdn.com/bphoto/FbLRjCloNtXYLQBB2flyVg/o.jpg", "is_closed": false, "url": "https://www.yelp.com/biz/hooters-atlanta-2?adjust_creative=EF8a8oVxO_eqnKdmEVpLxQ&utm_campaign=yelp_api_v3&utm_medium=api_v3_business_search&utm_source=EF8a8oVxO_eqnKdmEVpLxQ", "review_count": 468, "categories": [{"alias": "chicken_wings", "title": "Chicken Wings"}, {"alias": "sportsbars", "title": "Sports Bars"}, {"alias": "tradamerican", "title": "American (Traditional)"}], "rating": 2.0, "coordinates": {"latitude": 33.7595139, "longitude": -84.387442}, "transactions": ["pickup", "delivery"], "price": "$$", "location": {"address1": "209 Peachtree St NE", "address2": "", "address3": "", "city": "Atlanta", "zip_code": "30303", "country": "US", "state": "GA", "display_address": ["209 Peachtree St NE", "Atlanta, GA 30303"]}, "phone": "+14045229464", "display_phone": "(404) 522-9464", "distance": 242.44801127288517}, {"id": "UAJwlmjBqbprKoQK4t7_NQ", "alias": "views-bar-and-grill-atlanta", "name": "Views Bar And Grill", "image_url": "https://s3-media4.fl.yelpcdn.com/bphoto/Puu3r1WysVni66pYVQ-HCw/o.jpg", "is_closed": false, "url": "https://www.yelp.com/biz/views-bar-and-grill-atlanta?adjust_creative=EF8a8oVxO_eqnKdmEVpLxQ&utm_campaign=yelp_api_v3&utm_medium=api_v3_business_search&utm_source=EF8a8oVxO_eqnKdmEVpLxQ", "review_count": 122, "categories": [{"alias": "tradamerican", "title": "American (Traditional)"}, {"alias": "bars", "title": "Bars"}], "rating": 3.0, "coordinates": {"latitude": 33.75931, "longitude": -84.38826}, "transactions": ["pickup", "delivery"], "price": "$$", "location": {"address1": "200 Peachtree St NE", "address2": null, "address3": "", "city": "Atlanta", "zip_code": "30308", "country": "US", "state": "GA", "display_address": ["200 Peachtree St NE", "Atlanta, GA 30308"]}, "phone": "+16787320191", "display_phone": "(678) 732-0191", "distance": 240.25872837013003}, {"id": "YZ08okMxnfTbndZ3XPcauA", "alias": "the-hub-at-peachtree-center-atlanta", "name": "The Hub at Peachtree Center", "image_url": "https://s3-media1.fl.yelpcdn.com/bphoto/r1KLNIY21cFRiye8fFertQ/o.jpg", "is_closed": false, "url": "https://www.yelp.com/biz/the-hub-at-peachtree-center-atlanta?adjust_creative=EF8a8oVxO_eqnKdmEVpLxQ&utm_campaign=yelp_api_v3&utm_medium=api_v3_business_search&utm_source=EF8a8oVxO_eqnKdmEVpLxQ", "review_count": 72, "categories": [{"alias": "shopping", "title": "Shopping"}, {"alias": "food_court", "title": "Food Court"}], "rating": 3.0, "coordinates": {"latitude": 33.7602091, "longitude": -84.3870153}, "transactions": [], "price": "$$", "location": {"address1": "231 Peachtree St NE", "address2": "", "address3": "", "city": "Atlanta", "zip_code": "30303", "country": "US", "state": "GA", "display_address": ["231 Peachtree St NE", "Atlanta, GA 30303"]}, "phone": "+14045243787", "display_phone": "(404) 524-3787", "distance": 276.80582036314735}, {"id": "4pBPaZJYO6IHl0tOH6yBBQ", "alias": "haveli-indian-cuisine-atlanta", "name": "Haveli Indian Cuisine", "image_url": "https://s3-media4.fl.yelpcdn.com/bphoto/JIIEXsslmzNR8BkkgWSOfQ/o.jpg", "is_closed": false, "url": "https://www.yelp.com/biz/haveli-indian-cuisine-atlanta?adjust_creative=EF8a8oVxO_eqnKdmEVpLxQ&utm_campaign=yelp_api_v3&utm_medium=api_v3_business_search&utm_source=EF8a8oVxO_eqnKdmEVpLxQ", "review_count": 195, "categories": [{"alias": "indpak", "title": "Indian"}], "rating": 3.0, "coordinates": {"latitude": 33.7607097, "longitude": -84.3890332}, "transactions": ["pickup", "delivery"], "price": "$$", "location": {"address1": "225 Ted Turner Dr NW", "address2": "", "address3": "", "city": "Atlanta", "zip_code": "30303", "country": "US", "state": "GA", "display_address": ["225 Ted Turner Dr NW", "Atlanta, GA 30303"]}, "phone": "+14045224545", "display_phone": "(404) 522-4545", "distance": 119.23059667220353}]